{
"type": "FeatureCollection",
"name": "mountains",
"crs": { "type": "name", "properties": { "name": "urn:ogc:def:crs:OGC:1.3:CRS84" } },
"features": [
{ "type": "Feature", "properties": { "lat": "27.9879", "lon": "86.9250", "name": "Everest", "range": "Himalayas", "elev_ft": "29029" }, "geometry": { "type": "Point", "coordinates": [ 86.925, 27.9879 ] } },
{ "type": "Feature", "properties": { "lat": "35.8825", "lon": "76.513333", "name": "K2", "range": "Karakoram", "elev_ft": "28251" }, "geometry": { "type": "Point", "coordinates": [ 76.513333, 35.8825 ] } },
{ "type": "Feature", "properties": { "lat": "27.7025", "lon": "88.1475", "name": "Kangchenjunga", "range": "Himalayas", "elev_ft": "28169" }, "geometry": { "type": "Point", "coordinates": [ 88.1475, 27.7025 ] } },
{ "type": "Feature", "properties": { "lat": "27.9626", "lon": "86.9336", "name": "Lhotse", "range": "Himalayas", "elev_ft": "27940" }, "geometry": { "type": "Point", "coordinates": [ 86.9336, 27.9626 ] } },
{ "type": "Feature", "properties": { "lat": "27.8860", "lon": "87.0912", "name": "Makala", "range": "Himalayas", "elev_ft": "27766" }, "geometry": { "type": "Point", "coordinates": [ 87.0912, 27.886 ] } },
{ "type": "Feature", "properties": { "lat": "35.3606", "lon": "138.7275", "name": "Mt.Fuji", "range": null, "elev_ft": null }, "geometry": { "type": "Point", "coordinates": [ 138.7275, 35.3606 ] } }
]
}
